{"type":"Topology","objects":{"ne_10m_geography_regions_points":{"type":"GeometryCollection","geometries":[{"type":"Point","properties":{"scalerank":5,"featurecla":"cape","name":"South West Cape","comment":null,"name_alt":null,"lat_y":-43.510984,"long_x":146.054227,"region":"Oceania","subregion":"Australia"},"coordinates":[9064,2163]},{"type":"Point","properties":{"scalerank":5,"featurecla":"cape","name":"Cape Howe","comment":null,"name_alt":null,"lat_y":-37.488775,"long_x":149.95853,"region":"Oceania","subregion":"Australia"},"coordinates":[9174,2536]},{"type":"Point","properties":{"scalerank":5,"featurecla":"cape","name":"Cape Otway","comment":null,"name_alt":null,"lat_y":-38.857622,"long_x":143.565403,"region":"Oceania","subregion":"Australia"},"coordinates":[8994,2452]},{"type":"Point","properties":{"scalerank":5,"featurecla":"cape","name":"Cape Jaffa","comment":null,"name_alt":null,"lat_y":-36.944244,"long_x":139.690866,"region":"Oceania","subregion":"Australia"},"coordinates":[8886,2569]},{"type":"Point","properties":{"scalerank":5,"featurecla":"cape","name":"Cape Carnot","comment":null,"name_alt":null,"lat_y":-34.920233,"long_x":135.656027,"region":"Oceania","subregion":"Australia"},"coordinates":[8774,2693]},{"type":"Point","properties":{"scalerank":5,"featurecla":"cape","name":"Cape Byron","comment":null,"name_alt":null,"lat_y":-28.658282,"long_x":153.632849,"region":"Oceania","subregion":"Australia"},"coordinates":[9276,3080]},{"type":"Point","properties":{"scalerank":5,"featurecla":"cape","name":"Cape Manifold","comment":null,"name_alt":null,"lat_y":-22.702081,"long_x":150.811228,"region":"Oceania","subregion":"Australia"},"coordinates":[9197,3447]},{"type":"Point","properties":{"scalerank":5,"featurecla":"cape","name":"Cape York","comment":null,"name_alt":null,"lat_y":-10.710859,"long_x":142.522018,"region":"Oceania","subregion":"Australia"},"coordinates":[8966,4186]},{"type":"Point","properties":{"scalerank":5,"featurecla":"cape","name":"Cape Melville","comment":null,"name_alt":null,"lat_y":-14.163629,"long_x":144.506417,"region":"Oceania","subregion":"Australia"},"coordinates":[9021,3973]},{"type":"Point","properties":{"scalerank":5,"featurecla":"cape","name":"Cape Arnhem","comment":null,"name_alt":null,"lat_y":-12.337984,"long_x":136.952429,"region":"Oceania","subregion":"Australia"},"coordinates":[8809,4088]},{"type":"Point","properties":{"scalerank":5,"featurecla":"cape","name":"West Cape Howe","comment":null,"name_alt":null,"lat_y":-35.104301,"long_x":117.597011,"region":"Oceania","subregion":"Australia"},"coordinates":[8269,2683]},{"type":"Point","properties":{"scalerank":5,"featurecla":"cape","name":"Cape Leeuwin","comment":null,"name_alt":null,"lat_y":-34.297841,"long_x":115.10633,"region":"Oceania","subregion":"Australia"},"coordinates":[8200,2730]},{"type":"Point","properties":{"scalerank":5,"featurecla":"cape","name":"Cape Pasley","comment":null,"name_alt":null,"lat_y":-33.929054,"long_x":123.517283,"region":"Oceania","subregion":"Australia"},"coordinates":[8435,2755]},{"type":"Point","properties":{"scalerank":5,"featurecla":"cape","name":"Cape Londonderry","comment":null,"name_alt":null,"lat_y":-13.713856,"long_x":126.964514,"region":"Oceania","subregion":"Australia"},"coordinates":[8530,3999]},{"type":"Point","properties":{"scalerank":5,"featurecla":"cape","name":"Steep Point","comment":null,"name_alt":null,"lat_y":-26.16822,"long_x":113.169959,"region":"Oceania","subregion":"Australia"},"coordinates":[8145,3234]},{"type":"Point","properties":{"scalerank":5,"featurecla":"cape","name":"North West Cape","comment":null,"name_alt":null,"lat_y":-21.809776,"long_x":114.117534,"region":"Oceania","subregion":"Australia"},"coordinates":[8173,3502]},{"type":"Point","properties":{"scalerank":4,"featurecla":"cape","name":"Lands End","comment":null,"name_alt":null,"lat_y":50.069677,"long_x":-5.668629,"region":"Europe","subregion":"British Isles"},"coordinates":[4825,7931]},{"type":"Point","properties":{"scalerank":5,"featurecla":"cape","name":"Cabo Gracias a Dios","comment":null,"name_alt":null,"lat_y":14.994242,"long_x":-83.15866,"region":"North America","subregion":"Central America"},"coordinates":[2659,5770]},{"type":"Point","properties":{"scalerank":5,"featurecla":"cape","name":"Cape Brewster","comment":null,"name_alt":null,"lat_y":70.150754,"long_x":-22.122616,"region":"North America","subregion":"Greenland"},"coordinates":[4365,9169]},{"type":"Point","properties":{"scalerank":5,"featurecla":"cape","name":"Cape Morris Jesup","comment":null,"name_alt":null,"lat_y":83.626331,"long_x":-32.491541,"region":"North America","subregion":"Greenland"},"coordinates":[4075,9999]},{"type":"Point","properties":{"scalerank":4,"featurecla":"cape","name":"Cape York","comment":null,"name_alt":null,"lat_y":76.218919,"long_x":-68.218612,"region":"North America","subregion":"Greenland"},"coordinates":[3077,9543]},{"type":"Point","properties":{"scalerank":4,"featurecla":"cape","name":"Nunap Isua","comment":null,"name_alt":"Cape Farewell","lat_y":59.862583,"long_x":-43.90088,"region":"North America","subregion":"Greenland"},"coordinates":[3756,8535]},{"type":"Point","properties":{"scalerank":6,"featurecla":"island","name":"Rifstangi","comment":null,"name_alt":null,"lat_y":66.530766,"long_x":-16.126417,"region":"Europe","subregion":"Iceland"},"coordinates":[4532,8946]},{"type":"Point","properties":{"scalerank":5,"featurecla":"island","name":"Grmsey","comment":null,"name_alt":null,"lat_y":66.669359,"long_x":-18.251096,"region":"Europe","subregion":"Iceland"},"coordinates":[4473,8954]},{"type":"Point","properties":{"scalerank":5,"featurecla":"island","name":"Surtsey","comment":null,"name_alt":null,"lat_y":63.217764,"long_x":-20.434929,"region":"Europe","subregion":"Iceland"},"coordinates":[4412,8741]},{"type":"Point","properties":{"scalerank":5,"featurecla":"cape","name":"Cap Est","comment":null,"name_alt":null,"lat_y":-15.274849,"long_x":50.499889,"region":"Africa","subregion":"Indian Ocean"},"coordinates":[6394,3905]},{"type":"Point","properties":{"scalerank":4,"featurecla":"cape","name":"Cape Vohimena","comment":null,"name_alt":null,"lat_y":-25.546355,"long_x":45.158683,"region":"Africa","subregion":"Indian Ocean"},"coordinates":[6245,3272]},{"type":"Point","properties":{"scalerank":7,"featurecla":"island","name":"Rodrigues","comment":null,"name_alt":null,"lat_y":-19.702241,"long_x":66.54263,"region":"Seven seas (open ocean)","subregion":"Indian Ocean"},"coordinates":[6843,3632]},{"type":"Point","properties":{"scalerank":7,"featurecla":"island","name":"Diego Garcia","comment":null,"name_alt":null,"lat_y":-19.702241,"long_x":66.54263,"region":"Seven seas (open ocean)","subregion":"Indian Ocean"},"coordinates":[7007,4394]},{"type":"Point","properties":{"scalerank":6,"featurecla":"island","name":"I. Clarión","comment":null,"name_alt":null,"lat_y":18.345725,"long_x":-114.749992,"region":"Seven seas (open ocean)","subregion":"North Pacific Ocean"},"coordinates":[1776,5976]},{"type":"Point","properties":{"scalerank":6,"featurecla":"island","name":"I. Socorro","comment":null,"name_alt":null,"lat_y":18.786694,"long_x":-110.992912,"region":"Seven seas (open ocean)","subregion":"North Pacific Ocean"},"coordinates":[1881,6003]},{"type":"Point","properties":{"scalerank":7,"featurecla":"island","name":"Tikopia","comment":null,"name_alt":null,"lat_y":-12.28881,"long_x":168.833542,"region":"Oceania","subregion":"Melanesia"},"coordinates":[9701,4089]},{"type":"Point","properties":{"scalerank":6,"featurecla":"island","name":"Norfolk I.","comment":null,"name_alt":null,"lat_y":-29.02416,"long_x":167.960052,"region":"Oceania","subregion":"Melanesia"},"coordinates":[9677,3057]},{"type":"Point","properties":{"scalerank":5,"featurecla":"cape","name":"Cape Cretin","comment":null,"name_alt":null,"lat_y":-6.637492,"long_x":147.852392,"region":"Oceania","subregion":"Melanesia"},"coordinates":[9115,4437]},{"type":"Point","properties":{"scalerank":5,"featurecla":"island","name":"Îles Chesterfield","comment":null,"name_alt":null,"lat_y":-19.20447,"long_x":159.95171,"region":"Oceania","subregion":"Melanesia"},"coordinates":[9453,3662]},{"type":"Point","properties":{"scalerank":7,"featurecla":"island","name":"Lamotrek","comment":null,"name_alt":null,"lat_y":7.509727,"long_x":146.333084,"region":"Oceania","subregion":"Micronesia"},"coordinates":[9072,5309]},{"type":"Point","properties":{"scalerank":7,"featurecla":"island","name":"Kosrae","comment":null,"name_alt":null,"lat_y":5.329221,"long_x":162.974172,"region":"Oceania","subregion":"Micronesia"},"coordinates":[9537,5174]},{"type":"Point","properties":{"scalerank":7,"featurecla":"island","name":"Arorea","comment":null,"name_alt":null,"lat_y":-2.617755,"long_x":176.81264,"region":"Oceania","subregion":"Micronesia"},"coordinates":[9924,4684]},{"type":"Point","properties":{"scalerank":7,"featurecla":"island","name":"Pingelap","comment":null,"name_alt":null,"lat_y":6.22951,"long_x":160.702931,"region":"Oceania","subregion":"Micronesia"},"coordinates":[9474,5230]},{"type":"Point","properties":{"scalerank":7,"featurecla":"island","name":"Kapingamarangi","comment":null,"name_alt":null,"lat_y":1.079429,"long_x":154.781328,"region":"Oceania","subregion":"Micronesia"},"coordinates":[9308,4912]},{"type":"Point","properties":{"scalerank":7,"featurecla":"island","name":"Agrihan","comment":null,"name_alt":null,"lat_y":18.777332,"long_x":145.670369,"region":"Oceania","subregion":"Micronesia"},"coordinates":[9054,6003]},{"type":"Point","properties":{"scalerank":7,"featurecla":"island","name":"Asuncion","comment":null,"name_alt":null,"lat_y":19.688654,"long_x":145.40141,"region":"Oceania","subregion":"Micronesia"},"coordinates":[9046,6059]},{"type":"Point","properties":{"scalerank":7,"featurecla":"island","name":"Wotje","comment":null,"name_alt":null,"lat_y":9.451143,"long_x":170.012255,"region":"Oceania","subregion":"Micronesia"},"coordinates":[9734,5428]},{"type":"Point","properties":{"scalerank":7,"featurecla":"island","name":"Bikar","comment":null,"name_alt":null,"lat_y":12.243519,"long_x":170.120691,"region":"Oceania","subregion":"Micronesia"},"coordinates":[9737,5600]},{"type":"Point","properties":{"scalerank":5,"featurecla":"island","name":"Pagan","comment":null,"name_alt":null,"lat_y":18.119631,"long_x":145.785087,"region":"Oceania","subregion":"Micronesia"},"coordinates":[9057,5962]},{"type":"Point","properties":{"scalerank":5,"featurecla":"island","name":"Wake I.","comment":null,"name_alt":null,"lat_y":19.303497,"long_x":166.63626,"region":"Oceania","subregion":"Micronesia"},"coordinates":[9640,6035]},{"type":"Point","properties":{"scalerank":5,"featurecla":"island","name":"Tabiteuea","comment":null,"name_alt":null,"lat_y":-1.201405,"long_x":174.755207,"region":"Oceania","subregion":"Micronesia"},"coordinates":[9866,4772]},{"type":"Point","properties":{"scalerank":5,"featurecla":"island","name":"Aranuka","comment":null,"name_alt":null,"lat_y":0.226766,"long_x":173.626286,"region":"Oceania","subregion":"Micronesia"},"coordinates":[9835,4860]},{"type":"Point","properties":{"scalerank":5,"featurecla":"island","name":"Nauru","comment":null,"name_alt":null,"lat_y":-0.505856,"long_x":166.930778,"region":"Oceania","subregion":"Micronesia"},"coordinates":[9648,4815]},{"type":"Point","properties":{"scalerank":5,"featurecla":"island","name":"Ebon","comment":null,"name_alt":null,"lat_y":4.59977,"long_x":168.736432,"region":"Oceania","subregion":"Micronesia"},"coordinates":[9698,5129]},{"type":"Point","properties":{"scalerank":5,"featurecla":"island","name":"Jaluit","comment":null,"name_alt":null,"lat_y":5.964455,"long_x":169.682894,"region":"Oceania","subregion":"Micronesia"},"coordinates":[9725,5213]},{"type":"Point","properties":{"scalerank":5,"featurecla":"island","name":"Mili","comment":null,"name_alt":null,"lat_y":6.107334,"long_x":171.725875,"region":"Oceania","subregion":"Micronesia"},"coordinates":[9782,5222]},{"type":"Point","properties":{"scalerank":5,"featurecla":"island","name":"Majuro","comment":null,"name_alt":null,"lat_y":7.118009,"long_x":171.159743,"region":"Oceania","subregion":"Micronesia"},"coordinates":[9766,5284]},{"type":"Point","properties":{"scalerank":5,"featurecla":"island","name":"Ailinglapalap","comment":null,"name_alt":null,"lat_y":7.276392,"long_x":168.596926,"region":"Oceania","subregion":"Micronesia"},"coordinates":[9694,5294]},{"type":"Point","properties":{"scalerank":5,"featurecla":"island","name":"Kwajalein","comment":null,"name_alt":null,"lat_y":8.746619,"long_x":167.735072,"region":"Oceania","subregion":"Micronesia"},"coordinates":[9670,5385]},{"type":"Point","properties":{"scalerank":5,"featurecla":"island","name":"Rongelap","comment":null,"name_alt":null,"lat_y":11.164329,"long_x":166.869876,"region":"Oceania","subregion":"Micronesia"},"coordinates":[9646,5534]},{"type":"Point","properties":{"scalerank":5,"featurecla":"island","name":"Bikini","comment":null,"name_alt":null,"lat_y":11.639231,"long_x":165.550698,"region":"Oceania","subregion":"Micronesia"},"coordinates":[9609,5563]},{"type":"Point","properties":{"scalerank":5,"featurecla":"cape","name":"Cape Reinga","comment":null,"name_alt":null,"lat_y":-34.432767,"long_x":172.7285,"region":"Oceania","subregion":"New Zealand"},"coordinates":[9809,2725]},{"type":"Point","properties":{"scalerank":7,"featurecla":"island","name":"Necker","comment":null,"name_alt":null,"lat_y":23.586649,"long_x":-164.704743,"region":"Oceania","subregion":"Polynesia"},"coordinates":[380,6299]},{"type":"Point","properties":{"scalerank":7,"featurecla":"island","name":"Laysan","comment":null,"name_alt":null,"lat_y":25.776083,"long_x":-171.733589,"region":"Oceania","subregion":"Polynesia"},"coordinates":[184,6434]},{"type":"Point","properties":{"scalerank":7,"featurecla":"island","name":"Kure Atoll","comment":null,"name_alt":null,"lat_y":28.440992,"long_x":-178.319207,"region":"Oceania","subregion":"Polynesia"},"coordinates":[0,6598]},{"type":"Point","properties":{"scalerank":7,"featurecla":"island","name":"Nikumaroro","comment":null,"name_alt":null,"lat_y":-4.644675,"long_x":-174.53143,"region":"Oceania","subregion":"Polynesia"},"coordinates":[106,4560]},{"type":"Point","properties":{"scalerank":7,"featurecla":"island","name":"Howland I.","comment":null,"name_alt":null,"lat_y":0.814266,"long_x":-176.638313,"region":"Oceania","subregion":"Polynesia"},"coordinates":[47,4896]},{"type":"Point","properties":{"scalerank":7,"featurecla":"island","name":"Palmyra Atoll","comment":null,"name_alt":null,"lat_y":5.879013,"long_x":-162.09929,"region":"Oceania","subregion":"Polynesia"},"coordinates":[453,5208]},{"type":"Point","properties":{"scalerank":7,"featurecla":"island","name":"Jarvis","comment":null,"name_alt":null,"lat_y":-0.368919,"long_x":-160.020814,"region":"Oceania","subregion":"Polynesia"},"coordinates":[511,4823]},{"type":"Point","properties":{"scalerank":7,"featurecla":"island","name":"Takutea","comment":null,"name_alt":null,"lat_y":-19.8026,"long_x":-158.294405,"region":"Oceania","subregion":"Polynesia"},"coordinates":[560,3626]},{"type":"Point","properties":{"scalerank":7,"featurecla":"island","name":"Rakahanga","comment":null,"name_alt":null,"lat_y":-10.022892,"long_x":-161.081621,"region":"Oceania","subregion":"Polynesia"},"coordinates":[482,4228]},{"type":"Point","properties":{"scalerank":7,"featurecla":"island","name":"Raroia","comment":null,"name_alt":null,"lat_y":-16.054416,"long_x":-142.509609,"region":"Oceania","subregion":"Polynesia"},"coordinates":[1001,3857]},{"type":"Point","properties":{"scalerank":7,"featurecla":"island","name":"Rapa","comment":null,"name_alt":null,"lat_y":-27.587603,"long_x":-144.328315,"region":"Oceania","subregion":"Polynesia"},"coordinates":[950,3146]},{"type":"Point","properties":{"scalerank":7,"featurecla":"island","name":"Mangareva","comment":null,"name_alt":null,"lat_y":-23.102464,"long_x":-134.985909,"region":"Oceania","subregion":"Polynesia"},"coordinates":[1211,3422]},{"type":"Point","properties":{"scalerank":7,"featurecla":"island","name":"Henderson I.","comment":null,"name_alt":null,"lat_y":-24.349847,"long_x":-128.317479,"region":"Oceania","subregion":"Polynesia"},"coordinates":[1397,3345]},{"type":"Point","properties":{"scalerank":7,"featurecla":"island","name":"Nanumea","comment":null,"name_alt":null,"lat_y":-5.67562,"long_x":176.137639,"region":"Oceania","subregion":"Polynesia"},"coordinates":[9905,4496]},{"type":"Point","properties":{"scalerank":7,"featurecla":"island","name":"Niulakita","comment":null,"name_alt":null,"lat_y":-10.750687,"long_x":179.497571,"region":"Oceania","subregion":"Polynesia"},"coordinates":[9999,4183]},{"type":"Point","properties":{"scalerank":6,"featurecla":"island","name":"The Snares","comment":null,"name_alt":null,"lat_y":-48.017042,"long_x":166.588946,"region":"Oceania","subregion":"New Zealand"},"coordinates":[9638,1887]},{"type":"Point","properties":{"scalerank":5,"featurecla":"island","name":"Kanton","comment":null,"name_alt":null,"lat_y":-2.757106,"long_x":-171.71703,"region":"Oceania","subregion":"Polynesia"},"coordinates":[184,4676]},{"type":"Point","properties":{"scalerank":5,"featurecla":"island","name":"Tabuaeran","comment":null,"name_alt":"Fanning I.","lat_y":3.866545,"long_x":-159.326781,"region":"Oceania","subregion":"Polynesia"},"coordinates":[531,5084]},{"type":"Point","properties":{"scalerank":5,"featurecla":"island","name":"Malden","comment":null,"name_alt":null,"lat_y":-4.042491,"long_x":-154.983478,"region":"Oceania","subregion":"Polynesia"},"coordinates":[652,4597]},{"type":"Point","properties":{"scalerank":5,"featurecla":"island","name":"Rarotonga","comment":null,"name_alt":null,"lat_y":-21.201867,"long_x":-159.797637,"region":"Oceania","subregion":"Polynesia"},"coordinates":[518,3539]},{"type":"Point","properties":{"scalerank":5,"featurecla":"island","name":"Rangiroa","comment":null,"name_alt":null,"lat_y":-15.2046,"long_x":-147.773967,"region":"Oceania","subregion":"Polynesia"},"coordinates":[854,3909]},{"type":"Point","properties":{"scalerank":5,"featurecla":"island","name":"Funafuti","comment":null,"name_alt":null,"lat_y":-8.491577,"long_x":179.19841,"region":"Oceania","subregion":"Polynesia"},"coordinates":[9991,4323]},{"type":"Point","properties":{"scalerank":4,"featurecla":"island","name":"Vavau","comment":null,"name_alt":null,"lat_y":-18.590062,"long_x":-173.976769,"region":"Oceania","subregion":"Polynesia"},"coordinates":[121,3700]},{"type":"Point","properties":{"scalerank":4,"featurecla":"island","name":"I. de Pascua","comment":null,"name_alt":"Easter I.","lat_y":-27.102117,"long_x":-109.367953,"region":"Oceania","subregion":"Polynesia"},"coordinates":[1927,3176]},{"type":"Point","properties":{"scalerank":5,"featurecla":"island","name":"St. Croix","comment":null,"name_alt":null,"lat_y":17.762944,"long_x":-64.763088,"region":"North America","subregion":"West Indies"},"coordinates":[3173,5940]},{"type":"Point","properties":{"scalerank":5,"featurecla":"island","name":"Grand Cayman","comment":null,"name_alt":null,"lat_y":19.315829,"long_x":-81.271416,"region":"North America","subregion":"West Indies"},"coordinates":[2712,6036]},{"type":"Point","properties":{"scalerank":5,"featurecla":"island","name":"San  Salvador","comment":null,"name_alt":null,"lat_y":24.052793,"long_x":-74.492848,"region":"North America","subregion":"West Indies"},"coordinates":[2901,6328]},{"type":"Point","properties":{"scalerank":5,"featurecla":"island","name":"Grenada","comment":null,"name_alt":null,"lat_y":12.105978,"long_x":-61.723079,"region":"North America","subregion":"West Indies"},"coordinates":[3258,5592]},{"type":"Point","properties":{"scalerank":5,"featurecla":"island","name":"Barbuda","comment":null,"name_alt":null,"lat_y":17.622525,"long_x":-61.789243,"region":"North America","subregion":"West Indies"},"coordinates":[3256,5932]},{"type":"Point","properties":{"scalerank":5,"featurecla":"island","name":"Antigua","comment":null,"name_alt":null,"lat_y":17.040441,"long_x":-61.775982,"region":"North America","subregion":"West Indies"},"coordinates":[3257,5896]},{"type":"Point","properties":{"scalerank":5,"featurecla":"island","name":"Guadeloupe","comment":null,"name_alt":null,"lat_y":16.180583,"long_x":-61.656947,"region":"North America","subregion":"West Indies"},"coordinates":[3260,5843]},{"type":"Point","properties":{"scalerank":5,"featurecla":"island","name":"Dominica","comment":null,"name_alt":null,"lat_y":15.452943,"long_x":-61.352652,"region":"North America","subregion":"West Indies"},"coordinates":[3269,5798]},{"type":"Point","properties":{"scalerank":5,"featurecla":"island","name":"Martinique","comment":null,"name_alt":null,"lat_y":14.672462,"long_x":-61.008715,"region":"North America","subregion":"West Indies"},"coordinates":[3278,5750]},{"type":"Point","properties":{"scalerank":5,"featurecla":"island","name":"Saint Lucia","comment":null,"name_alt":null,"lat_y":13.918332,"long_x":-60.982225,"region":"North America","subregion":"West Indies"},"coordinates":[3279,5703]},{"type":"Point","properties":{"scalerank":5,"featurecla":"island","name":"Saint Vincent","comment":null,"name_alt":null,"lat_y":13.270131,"long_x":-61.207143,"region":"North America","subregion":"West Indies"},"coordinates":[3273,5664]},{"type":"Point","properties":{"scalerank":5,"featurecla":"island","name":"Barbados","comment":null,"name_alt":null,"lat_y":13.164326,"long_x":-59.566742,"region":"North America","subregion":"West Indies"},"coordinates":[3318,5657]},{"type":"Point","properties":{"scalerank":5,"featurecla":"island","name":"Tobago","comment":null,"name_alt":null,"lat_y":11.259334,"long_x":-60.677992,"region":"South America","subregion":"West Indies"},"coordinates":[3287,5540]},{"type":"Point","properties":{"scalerank":5,"featurecla":"island","name":"Margarita","comment":null,"name_alt":null,"lat_y":10.981467,"long_x":-64.051401,"region":"South America","subregion":"West Indies"},"coordinates":[3193,5523]},{"type":"Point","properties":{"scalerank":5,"featurecla":"island","name":"Curaao","comment":null,"name_alt":null,"lat_y":12.185355,"long_x":-68.999109,"region":"North America","subregion":"West Indies"},"coordinates":[3055,5597]},{"type":"Point","properties":{"scalerank":5,"featurecla":"island","name":"Aruba","comment":null,"name_alt":null,"lat_y":12.502849,"long_x":-69.96488,"region":"North America","subregion":"West Indies"},"coordinates":[3028,5616]},{"type":"Point","properties":{"scalerank":5,"featurecla":"cape","name":"Ras Banäs","comment":null,"name_alt":null,"lat_y":23.950592,"long_x":35.778059,"region":"Africa","subregion":null},"coordinates":[5983,6322]},{"type":"Point","properties":{"scalerank":5,"featurecla":"cape","name":"Ponta das Salinas","comment":null,"name_alt":null,"lat_y":-12.832908,"long_x":12.928991,"region":"Africa","subregion":null},"coordinates":[5345,4054]},{"type":"Point","properties":{"scalerank":5,"featurecla":"cape","name":"Ponta das Palmeirinhas","comment":null,"name_alt":null,"lat_y":-9.071387,"long_x":12.999549,"region":"Africa","subregion":null},"coordinates":[5347,4285]},{"type":"Point","properties":{"scalerank":5,"featurecla":"cape","name":"Cabo Bojador","comment":null,"name_alt":null,"lat_y":26.157836,"long_x":-14.473111,"region":"Africa","subregion":null},"coordinates":[4579,6458]},{"type":"Point","properties":{"scalerank":4,"featurecla":"cape","name":"Cape Agulhas","comment":null,"name_alt":null,"lat_y":-34.801182,"long_x":19.993472,"region":"Africa","subregion":null},"coordinates":[5542,2701]},{"type":"Point","properties":{"scalerank":3,"featurecla":"cape","name":"Gees Gwardafuy","comment":null,"name_alt":null,"lat_y":11.812855,"long_x":51.235173,"region":"Africa","subregion":null},"coordinates":[6415,5574]},{"type":"Point","properties":{"scalerank":3,"featurecla":"waterfall","name":"Victoria Falls","comment":null,"name_alt":null,"lat_y":-17.77079,"long_x":25.460133,"region":"Africa","subregion":null},"coordinates":[5705,3741]},{"type":"Point","properties":{"scalerank":6,"featurecla":"island","name":"Novyy I.","comment":null,"name_alt":null,"lat_y":-50.959168,"long_x":-72.995002,"region":"Antarctica","subregion":null},"coordinates":[4904,479]},{"type":"Point","properties":{"scalerank":6,"featurecla":"island","name":"Lyddan I.","comment":null,"name_alt":null,"lat_y":-50.959168,"long_x":-72.995002,"region":"Antarctica","subregion":null},"coordinates":[4399,278]},{"type":"Point","properties":{"scalerank":6,"featurecla":"island","name":"Verblyud I.","comment":null,"name_alt":null,"lat_y":-50.959168,"long_x":-72.995002,"region":"Antarctica","subregion":null},"coordinates":[5432,540]},{"type":"Point","properties":{"scalerank":6,"featurecla":"island","name":"Coulman I.","comment":null,"name_alt":null,"lat_y":-50.959168,"long_x":-72.995002,"region":"Antarctica","subregion":null},"coordinates":[9726,316]},{"type":"Point","properties":{"scalerank":6,"featurecla":"cape","name":"Minna Hook","comment":null,"name_alt":null,"lat_y":-50.959168,"long_x":-72.995002,"region":"Antarctica","subregion":null},"coordinates":[9657,0]},{"type":"Point","properties":{"scalerank":3,"featurecla":"island","name":"Wright I.","comment":null,"name_alt":null,"lat_y":-50.959168,"long_x":-72.995002,"region":"Antarctica","subregion":null},"coordinates":[1717,282]},{"type":"Point","properties":{"scalerank":3,"featurecla":"island","name":"Grant I.","comment":null,"name_alt":null,"lat_y":-50.959168,"long_x":-72.995002,"region":"Antarctica","subregion":null},"coordinates":[1309,256]},{"type":"Point","properties":{"scalerank":3,"featurecla":"island","name":"Newman I.","comment":null,"name_alt":null,"lat_y":-50.959168,"long_x":-72.995002,"region":"Antarctica","subregion":null},"coordinates":[912,188]},{"type":"Point","properties":{"scalerank":3,"featurecla":"island","name":"Dean I.","comment":null,"name_alt":null,"lat_y":-50.959168,"long_x":-72.995002,"region":"Antarctica","subregion":null},"coordinates":[1416,255]},{"type":"Point","properties":{"scalerank":6,"featurecla":"cape","name":"Cape Adare","comment":null,"name_alt":null,"lat_y":-52.510412,"long_x":169.120166,"region":"Antarctica","subregion":null},"coordinates":[9741,450]},{"type":"Point","properties":{"scalerank":6,"featurecla":"cape","name":"Cape Poinsett","comment":null,"name_alt":null,"lat_y":-52.510412,"long_x":169.120166,"region":"Antarctica","subregion":null},"coordinates":[8146,792]},{"type":"Point","properties":{"scalerank":6,"featurecla":"island","name":"Masson I.","comment":null,"name_alt":null,"lat_y":-52.510412,"long_x":169.120166,"region":"Antarctica","subregion":null},"coordinates":[7683,770]},{"type":"Point","properties":{"scalerank":6,"featurecla":"island","name":"Mikhaylov I.","comment":null,"name_alt":null,"lat_y":-52.510412,"long_x":169.120166,"region":"Antarctica","subregion":null},"coordinates":[7375,727]},{"type":"Point","properties":{"scalerank":6,"featurecla":"cape","name":"Cape Norvegia","comment":null,"name_alt":null,"lat_y":-52.510412,"long_x":169.120166,"region":"Antarctica","subregion":null},"coordinates":[4639,448]},{"type":"Point","properties":{"scalerank":6,"featurecla":"island","name":"Deception I.","comment":null,"name_alt":null,"lat_y":-52.510412,"long_x":169.120166,"region":"Antarctica","subregion":null},"coordinates":[3289,967]},{"type":"Point","properties":{"scalerank":6,"featurecla":"cape","name":"Cape Framnes","comment":null,"name_alt":null,"lat_y":-52.510412,"long_x":169.120166,"region":"Antarctica","subregion":null},"coordinates":[3290,781]},{"type":"Point","properties":{"scalerank":6,"featurecla":"cape","name":"Cape Agassiz","comment":null,"name_alt":null,"lat_y":-52.510412,"long_x":169.120166,"region":"Antarctica","subregion":null},"coordinates":[3226,627]},{"type":"Point","properties":{"scalerank":6,"featurecla":"cape","name":"Cape Jeremy","comment":null,"name_alt":null,"lat_y":-52.510412,"long_x":169.120166,"region":"Antarctica","subregion":null},"coordinates":[3061,567]},{"type":"Point","properties":{"scalerank":5,"featurecla":"cape","name":"Cape Comorin","comment":null,"name_alt":null,"lat_y":8.143554,"long_x":77.471497,"region":"Asia","subregion":null},"coordinates":[7149,5344]},{"type":"Point","properties":{"scalerank":5,"featurecla":"cape","name":"Dondra Head","comment":null,"name_alt":null,"lat_y":5.947528,"long_x":80.616321,"region":"Asia","subregion":null},"coordinates":[7235,5211]},{"type":"Point","properties":{"scalerank":5,"featurecla":"cape","name":"Cape Yelizavety","comment":null,"name_alt":null,"lat_y":54.416083,"long_x":142.720445,"region":"Asia","subregion":null},"coordinates":[8971,8199]},{"type":"Point","properties":{"scalerank":5,"featurecla":"cape","name":"Pt. Yuzhnyy","comment":null,"name_alt":null,"lat_y":57.733572,"long_x":156.796426,"region":"Asia","subregion":null},"coordinates":[9365,8403]},{"type":"Point","properties":{"scalerank":5,"featurecla":"cape","name":"Cape Sata","comment":null,"name_alt":null,"lat_y":31.026941,"long_x":130.695089,"region":"Asia","subregion":null},"coordinates":[8635,6758]},{"type":"Point","properties":{"scalerank":5,"featurecla":"cape","name":"Cape Aniva","comment":null,"name_alt":null,"lat_y":46.081706,"long_x":143.43487,"region":"Asia","subregion":null},"coordinates":[8991,7685]},{"type":"Point","properties":{"scalerank":5,"featurecla":"cape","name":"Cape Terpeniya","comment":null,"name_alt":null,"lat_y":48.66928,"long_x":144.712582,"region":"Asia","subregion":null},"coordinates":[9027,7845]},{"type":"Point","properties":{"scalerank":5,"featurecla":"cape","name":"Cape Lopatka","comment":null,"name_alt":null,"lat_y":50.914155,"long_x":156.651536,"region":"Asia","subregion":null},"coordinates":[9361,7983]},{"type":"Point","properties":{"scalerank":5,"featurecla":"cape","name":"Cape Ozernoy","comment":null,"name_alt":null,"lat_y":57.7708,"long_x":163.246685,"region":"Asia","subregion":null},"coordinates":[9545,8406]},{"type":"Point","properties":{"scalerank":5,"featurecla":"cape","name":"Cape Olyutorskiy","comment":null,"name_alt":null,"lat_y":59.960807,"long_x":170.31265,"region":"Asia","subregion":null},"coordinates":[9742,8541]},{"type":"Point","properties":{"scalerank":5,"featurecla":"cape","name":"Cape Navarin","comment":null,"name_alt":null,"lat_y":62.327239,"long_x":179.074225,"region":"Asia","subregion":null},"coordinates":[9987,8687]},{"type":"Point","properties":{"scalerank":5,"featurecla":"cape","name":"Cape Lopatka","comment":null,"name_alt":null,"lat_y":71.907853,"long_x":150.066042,"region":"Asia","subregion":null},"coordinates":[9177,9277]},{"type":"Point","properties":{"scalerank":5,"featurecla":"cape","name":"Cape Ince","comment":null,"name_alt":null,"lat_y":42.084312,"long_x":34.983358,"region":"Asia","subregion":null},"coordinates":[5961,7439]},{"type":"Point","properties":{"scalerank":5,"featurecla":"cape","name":"Ras Fartak","comment":null,"name_alt":null,"lat_y":15.677412,"long_x":52.229105,"region":"Asia","subregion":null},"coordinates":[6443,5811]},{"type":"Point","properties":{"scalerank":5,"featurecla":"cape","name":"Ras Sharbatat","comment":null,"name_alt":null,"lat_y":18.164534,"long_x":56.56827,"region":"Asia","subregion":null},"coordinates":[6564,5965]},{"type":"Point","properties":{"scalerank":5,"featurecla":"cape","name":"Ra's al Had","comment":null,"name_alt":null,"lat_y":22.530158,"long_x":59.849134,"region":"Asia","subregion":null},"coordinates":[6654,6233]},{"type":"Point","properties":{"scalerank":5,"featurecla":"island","name":"Hachijjima","comment":null,"name_alt":null,"lat_y":33.109796,"long_x":139.804903,"region":"Asia","subregion":null},"coordinates":[8890,6886]},{"type":"Point","properties":{"scalerank":4,"featurecla":"plain","name":"Plain of Jars","comment":null,"name_alt":null,"lat_y":20.550709,"long_x":101.890532,"region":"Asia","subregion":null},"coordinates":[7830,6112]},{"type":"Point","properties":{"scalerank":5,"featurecla":"cape","name":"Nordkapp","comment":null,"name_alt":null,"lat_y":71.18337,"long_x":25.662398,"region":"Europe","subregion":null},"coordinates":[5700,9230]},{"type":"Point","properties":{"scalerank":5,"featurecla":"cape","name":"Cabo de São Vicentete","comment":null,"name_alt":null,"lat_y":37.038304,"long_x":-8.969391,"region":"Europe","subregion":null},"coordinates":[4732,7128]},{"type":"Point","properties":{"scalerank":5,"featurecla":"cape","name":"Cabo Fisterra","comment":null,"name_alt":null,"lat_y":42.952418,"long_x":-9.267837,"region":"Europe","subregion":null},"coordinates":[4724,7491]},{"type":"Point","properties":{"scalerank":5,"featurecla":"cape","name":"Cape San Blas","comment":null,"name_alt":null,"lat_y":29.713967,"long_x":-85.270961,"region":"North America","subregion":null},"coordinates":[2600,6677]},{"type":"Point","properties":{"scalerank":5,"featurecla":"cape","name":"Cape Sable","comment":null,"name_alt":null,"lat_y":43.469097,"long_x":-65.610769,"region":"North America","subregion":null},"coordinates":[3150,7524]},{"type":"Point","properties":{"scalerank":5,"featurecla":"cape","name":"Cape Bauld","comment":null,"name_alt":null,"lat_y":51.568576,"long_x":-55.430306,"region":"North America","subregion":null},"coordinates":[3434,8024]},{"type":"Point","properties":{"scalerank":5,"featurecla":"cape","name":"Cape Fear","comment":null,"name_alt":null,"lat_y":33.867949,"long_x":-77.990568,"region":"North America","subregion":null},"coordinates":[2804,6933]},{"type":"Point","properties":{"scalerank":5,"featurecla":"island","name":"I. Guadalupe","comment":null,"name_alt":null,"lat_y":29.052552,"long_x":-118.317465,"region":"Seven seas (open ocean)","subregion":"North Pacific Ocean"},"coordinates":[1677,6636]},{"type":"Point","properties":{"scalerank":5,"featurecla":"island","name":"Miquelon","comment":null,"name_alt":null,"lat_y":46.929526,"long_x":-56.329884,"region":"North America","subregion":null},"coordinates":[3409,7738]},{"type":"Point","properties":{"scalerank":4,"featurecla":"cape","name":"Cabo Corrientes","comment":null,"name_alt":null,"lat_y":20.409471,"long_x":-105.683581,"region":"North America","subregion":null},"coordinates":[2030,6104]},{"type":"Point","properties":{"scalerank":4,"featurecla":"cape","name":"Pt. Eugenia","comment":null,"name_alt":null,"lat_y":27.861925,"long_x":-115.07629,"region":"North America","subregion":null},"coordinates":[1768,6562]},{"type":"Point","properties":{"scalerank":4,"featurecla":"cape","name":"Point Conception","comment":null,"name_alt":null,"lat_y":34.582313,"long_x":-120.659016,"region":"North America","subregion":null},"coordinates":[1617,6969]},{"type":"Point","properties":{"scalerank":4,"featurecla":"cape","name":"Cape Hatteras","comment":null,"name_alt":null,"lat_y":35.437762,"long_x":-75.450543,"region":"North America","subregion":null},"coordinates":[2872,7018]},{"type":"Point","properties":{"scalerank":4,"featurecla":"cape","name":"Cape Sable","comment":null,"name_alt":null,"lat_y":25.124896,"long_x":-81.090442,"region":"North America","subregion":null},"coordinates":[2717,6394]},{"type":"Point","properties":{"scalerank":4,"featurecla":"cape","name":"Cape Hope","comment":null,"name_alt":null,"lat_y":68.35638,"long_x":-166.815582,"region":"North America","subregion":null},"coordinates":[322,9058]},{"type":"Point","properties":{"scalerank":4,"featurecla":"cape","name":"Point Barrow","comment":null,"name_alt":null,"lat_y":71.372637,"long_x":-156.615894,"region":"North America","subregion":null},"coordinates":[611,9246]},{"type":"Point","properties":{"scalerank":3,"featurecla":"cape","name":"Cape Canaveral","comment":null,"name_alt":null,"lat_y":28.483713,"long_x":-80.534941,"region":"North America","subregion":null},"coordinates":[2732,6600]},{"type":"Point","properties":{"scalerank":3,"featurecla":"cape","name":"Cape Mendocino","comment":null,"name_alt":null,"lat_y":40.350222,"long_x":-124.323474,"region":"North America","subregion":null},"coordinates":[1507,7338]},{"type":"Point","properties":{"scalerank":3,"featurecla":"cape","name":"Cabo San Lucas","comment":null,"name_alt":null,"lat_y":22.887711,"long_x":-109.969843,"region":"North America","subregion":null},"coordinates":[1910,6256]},{"type":"Point","properties":{"scalerank":3,"featurecla":"cape","name":"Cape Churchill","comment":null,"name_alt":null,"lat_y":58.752014,"long_x":-93.182023,"region":"North America","subregion":null},"coordinates":[2379,8466]},{"type":"Point","properties":{"scalerank":3,"featurecla":"cape","name":"Cape Cod","comment":null,"name_alt":null,"lat_y":41.734867,"long_x":-69.964865,"region":"North America","subregion":null},"coordinates":[3026,7433]},{"type":"Point","properties":{"scalerank":3,"featurecla":"cape","name":"Cape May","comment":null,"name_alt":null,"lat_y":37.2017,"long_x":-75.926791,"region":"North America","subregion":null},"coordinates":[2889,7245]},{"type":"Point","properties":{"scalerank":2,"featurecla":"waterfall","name":"Niagara Falls","comment":null,"name_alt":null,"lat_y":43.087653,"long_x":-79.044073,"region":"North America","subregion":null},"coordinates":[2774,7501]},{"type":"Point","properties":{"scalerank":7,"featurecla":"island","name":"I. Alejandro Selkirk","comment":null,"name_alt":null,"lat_y":-33.722178,"long_x":-80.733492,"region":"Seven seas (open ocean)","subregion":"South Pacific Ocean"},"coordinates":[2727,2768]},{"type":"Point","properties":{"scalerank":7,"featurecla":"island","name":"I. San Ambrosio","comment":null,"name_alt":null,"lat_y":-26.341922,"long_x":-79.900062,"region":"Seven seas (open ocean)","subregion":"South Pacific Ocean"},"coordinates":[2750,3223]},{"type":"Point","properties":{"scalerank":5,"featurecla":"island","name":"I. Robinson Crusoe","comment":null,"name_alt":null,"lat_y":-33.589852,"long_x":-78.872522,"region":"Seven seas (open ocean)","subregion":"South Pacific Ocean"},"coordinates":[2779,2776]},{"type":"Point","properties":{"scalerank":5,"featurecla":"cape","name":"Cabo Orange","comment":null,"name_alt":null,"lat_y":4.125735,"long_x":-51.242144,"region":"South America","subregion":null},"coordinates":[3551,5101]},{"type":"Point","properties":{"scalerank":5,"featurecla":"cape","name":"Cabo de Santa Marta Grande","comment":null,"name_alt":null,"lat_y":-28.558078,"long_x":-48.735526,"region":"South America","subregion":null},"coordinates":[3619,3085]},{"type":"Point","properties":{"scalerank":5,"featurecla":"cape","name":"Punta del Este","comment":null,"name_alt":null,"lat_y":-34.975503,"long_x":-54.933154,"region":"South America","subregion":null},"coordinates":[3448,2691]},{"type":"Point","properties":{"scalerank":5,"featurecla":"cape","name":"Cabo San Antonio","comment":null,"name_alt":null,"lat_y":-36.381052,"long_x":-56.655377,"region":"South America","subregion":null},"coordinates":[3398,2602]},{"type":"Point","properties":{"scalerank":5,"featurecla":"cape","name":"Cabo Corrientes","comment":null,"name_alt":null,"lat_y":-38.135985,"long_x":-57.546212,"region":"South America","subregion":null},"coordinates":[3374,2500]},{"type":"Point","properties":{"scalerank":5,"featurecla":"cape","name":"Punta Rasa","comment":null,"name_alt":null,"lat_y":-40.834718,"long_x":-62.282201,"region":"South America","subregion":null},"coordinates":[3243,2336]},{"type":"Point","properties":{"scalerank":5,"featurecla":"cape","name":"Cabo Dos Bahías","comment":null,"name_alt":null,"lat_y":-44.9887,"long_x":-65.615952,"region":"South America","subregion":null},"coordinates":[3151,2079]},{"type":"Point","properties":{"scalerank":4,"featurecla":"cape","name":"Punta Negra","comment":null,"name_alt":null,"lat_y":-5.948875,"long_x":-81.108252,"region":"South America","subregion":null},"coordinates":[2717,4479]},{"type":"Point","properties":{"scalerank":4,"featurecla":"cape","name":"Punta Lavapié","comment":null,"name_alt":null,"lat_y":-37.262867,"long_x":-73.606377,"region":"South America","subregion":null},"coordinates":[2926,2555]},{"type":"Point","properties":{"scalerank":3,"featurecla":"cape","name":"Cabo de Hornos","comment":null,"name_alt":"Cape Horn","lat_y":-55.862824,"long_x":-67.169425,"region":"South America","subregion":null},"coordinates":[3106,1403]},{"type":"Point","properties":{"scalerank":2,"featurecla":"waterfall","name":"Salto Angel","comment":null,"name_alt":"Angel Falls","lat_y":5.686836,"long_x":-62.061848,"region":"South America","subregion":null},"coordinates":[3249,5196]},{"type":"Point","properties":{"scalerank":2,"featurecla":"waterfall","name":"Iguazu Falls","comment":null,"name_alt":null,"lat_y":-25.568265,"long_x":-54.582842,"region":"South America","subregion":null},"coordinates":[3458,3270]},{"type":"Point","properties":{"scalerank":7,"featurecla":"island","name":"Clipperton I.","comment":null,"name_alt":null,"lat_y":10.309933,"long_x":-109.213284,"region":"Seven seas (open ocean)","subregion":"North Pacific Ocean"},"coordinates":[1931,5481]},{"type":"Point","properties":{"scalerank":7,"featurecla":"island","name":"Île Amsterdam","comment":null,"name_alt":null,"lat_y":-19.702241,"long_x":66.54263,"region":"Seven seas (open ocean)","subregion":"South Indian Ocean"},"coordinates":[7150,2513]},{"type":"Point","properties":{"scalerank":7,"featurecla":"island","name":"Île Amsterdam","comment":null,"name_alt":null,"lat_y":-19.702241,"long_x":66.54263,"region":"Seven seas (open ocean)","subregion":"South Indian Ocean"},"coordinates":[7149,2460]},{"type":"Point","properties":{"scalerank":7,"featurecla":"island","name":"Île Europa","comment":null,"name_alt":null,"lat_y":-22.837936,"long_x":40.192423,"region":"Africa","subregion":null},"coordinates":[6106,3439]},{"type":"Point","properties":{"scalerank":7,"featurecla":"island","name":"Annobón","comment":null,"name_alt":null,"lat_y":-1.429572,"long_x":5.621149,"region":"Africa","subregion":null},"coordinates":[5140,4758]},{"type":"Point","properties":{"scalerank":7,"featurecla":"island","name":"Ascension","comment":null,"name_alt":null,"lat_y":-7.925105,"long_x":-14.362648,"region":"Seven seas (open ocean)","subregion":"Southern Atlantic Ocean"},"coordinates":[4582,4357]},{"type":"Point","properties":{"scalerank":7,"featurecla":"island group","name":"Tristan da Cunha","comment":null,"name_alt":null,"lat_y":-35.278715,"long_x":-17.932071,"region":"Seven seas (open ocean)","subregion":"Southern Atlantic Ocean"},"coordinates":[4640,2561]},{"type":"Point","properties":{"scalerank":7,"featurecla":"island","name":"Gough I.","comment":null,"name_alt":null,"lat_y":-35.278715,"long_x":-17.932071,"region":"Seven seas (open ocean)","subregion":"Southern Atlantic Ocean"},"coordinates":[4705,2360]},{"type":"Point","properties":{"scalerank":7,"featurecla":"island","name":"Bouvet I.","comment":null,"name_alt":null,"lat_y":-35.278715,"long_x":-17.932071,"region":"Seven seas (open ocean)","subregion":"Southern Atlantic Ocean"},"coordinates":[5078,1493]},{"type":"Point","properties":{"scalerank":6,"featurecla":"cape","name":"Cape Colbeck","comment":null,"name_alt":null,"lat_y":-50.959168,"long_x":-72.995002,"region":"Antarctica","subregion":null},"coordinates":[561,94]},{"type":"Point","properties":{"scalerank":6,"featurecla":"island","name":"Is. de Fernando de Noronha","comment":null,"name_alt":null,"lat_y":-3.849881,"long_x":-32.417053,"region":"Seven seas (open ocean)","subregion":"Southern Atlantic Ocean"},"coordinates":[4077,4609]},{"type":"Point","properties":{"scalerank":6,"featurecla":"island","name":"Cocos Is.","comment":null,"name_alt":null,"lat_y":-12.158465,"long_x":96.828369,"region":"Seven seas (open ocean)","subregion":"Indian Ocean"},"coordinates":[7689,4097]},{"type":"Point","properties":{"scalerank":6,"featurecla":"island","name":"Christmas I.","comment":null,"name_alt":null,"lat_y":-10.472542,"long_x":105.667155,"region":"Seven seas (open ocean)","subregion":"Indian Ocean"},"coordinates":[7936,4200]},{"type":"Point","properties":{"scalerank":6,"featurecla":"island","name":"Campbell I.","comment":null,"name_alt":null,"lat_y":-52.510412,"long_x":169.120166,"region":"Seven seas (open ocean)","subregion":"South Pacific Ocean"},"coordinates":[9709,1610]},{"type":"Point","properties":{"scalerank":6,"featurecla":"island","name":"Macquarie I.","comment":null,"name_alt":null,"lat_y":-52.510412,"long_x":169.120166,"region":"Seven seas (open ocean)","subregion":"South Indian Ocean"},"coordinates":[9423,1481]},{"type":"Point","properties":{"scalerank":6,"featurecla":"cape","name":"Cape Darnley","comment":null,"name_alt":null,"lat_y":-52.510412,"long_x":169.120166,"region":"Antarctica","subregion":null},"coordinates":[6928,670]},{"type":"Point","properties":{"scalerank":6,"featurecla":"cape","name":"Cape Ann","comment":null,"name_alt":null,"lat_y":-52.510412,"long_x":169.120166,"region":"Antarctica","subregion":null},"coordinates":[6420,769]},{"type":"Point","properties":{"scalerank":6,"featurecla":"island","name":"Peter I I.","comment":null,"name_alt":null,"lat_y":-52.510412,"long_x":169.120166,"region":"Antarctica","subregion":"Southern Ocean"},"coordinates":[2452,608]},{"type":"Point","properties":{"scalerank":6,"featurecla":"island","name":"Antipodes Islands","comment":null,"name_alt":null,"lat_y":-49.649273,"long_x":178.773056,"region":"Seven seas (open ocean)","subregion":"South Pacific Ocean"},"coordinates":[9979,1786]},{"type":"Point","properties":{"scalerank":6,"featurecla":"island","name":"Bounty Is.","comment":null,"name_alt":null,"lat_y":-47.688207,"long_x":178.89656,"region":"Seven seas (open ocean)","subregion":"South Pacific Ocean"},"coordinates":[9982,1907]},{"type":"Point","properties":{"scalerank":6,"featurecla":"island","name":"Balls Pyramid","comment":null,"name_alt":null,"lat_y":-31.826904,"long_x":159.158463,"region":"Seven seas (open ocean)","subregion":"South Pacific Ocean"},"coordinates":[9431,2885]},{"type":"Point","properties":{"scalerank":6,"featurecla":"island","name":"Lord Howe I.","comment":null,"name_alt":null,"lat_y":-31.542569,"long_x":159.069307,"region":"Seven seas (open ocean)","subregion":"South Pacific Ocean"},"coordinates":[9428,2902]},{"type":"Point","properties":{"scalerank":6,"featurecla":"island","name":"St. Helena","comment":null,"name_alt":null,"lat_y":-15.950901,"long_x":-5.705161,"region":"Seven seas (open ocean)","subregion":"Southern Atlantic Ocean"},"coordinates":[4824,3863]},{"type":"Point","properties":{"scalerank":6,"featurecla":"island","name":"I. del Coco","comment":null,"name_alt":null,"lat_y":5.539857,"long_x":-87.092227,"region":"Seven seas (open ocean)","subregion":"North Pacific Ocean"},"coordinates":[2549,5187]},{"type":"Point","properties":{"scalerank":6,"featurecla":"island","name":"Sable I.","comment":null,"name_alt":null,"lat_y":43.930893,"long_x":-59.91953,"region":"Seven seas (open ocean)","subregion":null},"coordinates":[3309,7553]},{"type":"Point","properties":{"scalerank":5,"featurecla":"cape","name":"Cabo Delgado","comment":null,"name_alt":null,"lat_y":-10.670103,"long_x":40.624309,"region":"Africa","subregion":null},"coordinates":[6118,4188]},{"type":"Point","properties":{"scalerank":5,"featurecla":"cape","name":"Ponta da Barra","comment":null,"name_alt":null,"lat_y":-23.829888,"long_x":35.515696,"region":"Africa","subregion":null},"coordinates":[5976,3377]},{"type":"Point","properties":{"scalerank":5,"featurecla":"cape","name":"Ponta São Sebastio","comment":null,"name_alt":null,"lat_y":-22.118899,"long_x":35.480417,"region":"Africa","subregion":null},"coordinates":[5975,3483]},{"type":"Point","properties":{"scalerank":5,"featurecla":"cape","name":"Ras Cantin","comment":null,"name_alt":null,"lat_y":32.581636,"long_x":-9.273918,"region":"Africa","subregion":null},"coordinates":[4724,6854]},{"type":"Point","properties":{"scalerank":5,"featurecla":"cape","name":"Ras Kasr","comment":null,"name_alt":null,"lat_y":18.076817,"long_x":38.573746,"region":"Africa","subregion":null},"coordinates":[6061,5960]},{"type":"Point","properties":{"scalerank":5,"featurecla":"cape","name":"Ponta de Jericoacoara","comment":null,"name_alt":null,"lat_y":-2.85044,"long_x":-40.067208,"region":"South America","subregion":null},"coordinates":[3865,4670]},{"type":"Point","properties":{"scalerank":5,"featurecla":"cape","name":"Cabo de São Roque","comment":null,"name_alt":null,"lat_y":-5.193476,"long_x":-35.447654,"region":"South America","subregion":null},"coordinates":[3991,4528]},{"type":"Point","properties":{"scalerank":5,"featurecla":"cape","name":"Ponta da Baleia","comment":null,"name_alt":null,"lat_y":-17.710136,"long_x":-39.157619,"region":"South America","subregion":null},"coordinates":[3889,3756]},{"type":"Point","properties":{"scalerank":5,"featurecla":"cape","name":"Cabo de São Tomé","comment":null,"name_alt":null,"lat_y":-21.996382,"long_x":-41.009692,"region":"South America","subregion":null},"coordinates":[3838,3492]},{"type":"Point","properties":{"scalerank":5,"featurecla":"cape","name":"Cabo Frio","comment":null,"name_alt":null,"lat_y":-22.869501,"long_x":-41.962188,"region":"South America","subregion":null},"coordinates":[3812,3443]},{"type":"Point","properties":{"scalerank":5,"featurecla":"cape","name":"Cabo San Diego","comment":null,"name_alt":null,"lat_y":-54.6406,"long_x":-65.21365,"region":"South America","subregion":null},"coordinates":[3161,1479]},{"type":"Point","properties":{"scalerank":5,"featurecla":"cape","name":"Cabo Tres Puntas","comment":null,"name_alt":null,"lat_y":-47.237629,"long_x":-65.774707,"region":"South America","subregion":null},"coordinates":[3146,1929]},{"type":"Point","properties":{"scalerank":5,"featurecla":"cape","name":"Cap Saint André","comment":null,"name_alt":null,"lat_y":-16.174457,"long_x":44.467405,"region":"Africa","subregion":null},"coordinates":[6226,3849]},{"type":"Point","properties":{"scalerank":5,"featurecla":"cape","name":"Cape St. Lucia","comment":null,"name_alt":null,"lat_y":-28.552694,"long_x":32.367221,"region":"Africa","subregion":null},"coordinates":[5888,3086]},{"type":"Point","properties":{"scalerank":5,"featurecla":"cape","name":"Cape St. Francis","comment":null,"name_alt":null,"lat_y":-34.171766,"long_x":24.817688,"region":"Africa","subregion":null},"coordinates":[5677,2739]},{"type":"Point","properties":{"scalerank":5,"featurecla":"island","name":"Minamitori-shima","comment":null,"name_alt":"Marcus I.","lat_y":24.319813,"long_x":153.958899,"region":"Seven seas (open ocean)","subregion":"North Pacific Ocean"},"coordinates":[9285,6344]},{"type":"Point","properties":{"scalerank":5,"featurecla":"island","name":"Is. Martin Vaz","comment":null,"name_alt":null,"lat_y":-20.559422,"long_x":-29.338439,"region":"Seven seas (open ocean)","subregion":"Southern Atlantic Ocean"},"coordinates":[4163,3579]},{"type":"Point","properties":{"scalerank":5,"featurecla":"island","name":"Rockall","comment":null,"name_alt":null,"lat_y":58.163524,"long_x":-12.408715,"region":"Seven seas (open ocean)","subregion":"North Atlantic Ocean"},"coordinates":[4636,8430]},{"type":"Point","properties":{"scalerank":5,"featurecla":"island","name":"I. de Cozumel","comment":null,"name_alt":null,"lat_y":20.444687,"long_x":-86.880555,"region":"North America","subregion":null},"coordinates":[2555,6106]},{"type":"Point","properties":{"scalerank":5,"featurecla":"island","name":"Bermuda Islands","comment":null,"name_alt":null,"lat_y":32.317339,"long_x":-64.742895,"region":"Seven seas (open ocean)","subregion":"North Atlantic Ocean"},"coordinates":[3174,6837]},{"type":"Point","properties":{"scalerank":4,"featurecla":"cape","name":"Punta Galera","comment":null,"name_alt":null,"lat_y":0.731221,"long_x":-80.062205,"region":"South America","subregion":null},"coordinates":[2746,4891]},{"type":"Point","properties":{"scalerank":4,"featurecla":"cape","name":"Cap Lopez","comment":null,"name_alt":null,"lat_y":-0.604761,"long_x":8.726423,"region":"Africa","subregion":null},"coordinates":[5227,4808]},{"type":"Point","properties":{"scalerank":4,"featurecla":"cape","name":"Cape Bobaomby","comment":null,"name_alt":null,"lat_y":-11.966598,"long_x":49.262904,"region":"Africa","subregion":null},"coordinates":[6360,4108]},{"type":"Point","properties":{"scalerank":4,"featurecla":"cape","name":"Cap Blanc","comment":null,"name_alt":null,"lat_y":20.822108,"long_x":-17.052856,"region":"Africa","subregion":null},"coordinates":[4507,6129]},{"type":"Point","properties":{"scalerank":3,"featurecla":"cape","name":"Cape of Good Hope","comment":null,"name_alt":null,"lat_y":-34.307311,"long_x":18.441206,"region":"Africa","subregion":null},"coordinates":[5498,2732]},{"type":"Point","properties":{"scalerank":3,"featurecla":"cape","name":"Cape Palmas","comment":null,"name_alt":null,"lat_y":4.373924,"long_x":-7.457356,"region":"Africa","subregion":null},"coordinates":[4775,5115]},{"type":"Point","properties":{"scalerank":3,"featurecla":"cape","name":"Cape Verde","comment":null,"name_alt":null,"lat_y":14.732312,"long_x":-17.471776,"region":"Africa","subregion":null},"coordinates":[4495,5754]},{"type":"Point","properties":{"scalerank":3,"featurecla":"cape","name":"Cap Bon","comment":null,"name_alt":null,"lat_y":37.073954,"long_x":11.024061,"region":"Africa","subregion":null},"coordinates":[5291,7130]},{"type":"Point","properties":{"scalerank":3,"featurecla":"pole","name":"Oceanic pole of inaccessibility","comment":null,"name_alt":null,"lat_y":-48.865032,"long_x":-123.401986,"region":"Seven seas (open ocean)","subregion":"South Pacific Ocean"},"coordinates":[1535,1835]},{"type":"Point","properties":{"scalerank":3,"featurecla":"pole","name":"South Magnetic Pole 2005 (est)","comment":null,"name_alt":null,"lat_y":-48.865032,"long_x":-123.401986,"region":"Antarctica","subregion":"Southern Ocean"},"coordinates":[8835,870]},{"type":"Point","properties":{"scalerank":3,"featurecla":"pole","name":"North Magnetic Pole 2005 (est)","comment":null,"name_alt":null,"lat_y":-48.865032,"long_x":-123.401986,"region":"Seven seas (open ocean)","subregion":"Arctic Ocean"},"coordinates":[1786,9943]}]}},"arcs":[],"transform":{"scale":[0.03578525577167092,0.0162280632360111],"translate":[-178.31920325429127,-78.63811614375592]}}